{"type":"FeatureCollection","features":[{"type":"Feature","properties":{"kaartdeel":"Schouwen-Duiveland","Code SG":"SD01","LF no":"SD-01 LF","KLM strips":"21 - 529","bonneblad":577,"NAAM":"Burghsluis SD01 ","plaats":"Burghsluis","polder":"Bootsinlaag","dijk":"havendijk"},"geometry":{"type":"Point","coordinates":[3.757281,51.676081]}},{"type":"Feature","properties":{"kaartdeel":"Schouwen-Duiveland","Code SG":"SD02","LF no":"SD-01 LF","KLM strips":"21 - 529","bonneblad":577,"NAAM":"Burghsluis SD02","plaats":"Burghsluis","polder":"Bootsinlaag","dijk":"havendijk"},"geometry":{"type":"Point","coordinates":[3.757862,51.675868]}},{"type":"Feature","properties":{"kaartdeel":"Schouwen-Duiveland","Code SG":"SD03","LF no":"SD-01 LF","KLM strips":"21 - 529","bonneblad":577,"NAAM":"Burghsluis SD03","plaats":"Burghsluis","polder":"Schouwen","dijk":""},"geometry":{"type":"Point","coordinates":[3.752604,51.67503]}},{"type":"Feature","properties":{"kaartdeel":"Schouwen-Duiveland","Code SG":"SD04","LF no":"SD-02 LF","KLM strips":"21 - 536","bonneblad":577,"NAAM":"Schelphoek SD04","plaats":"Schelphoek","polder":"Schouwen","dijk":""},"geometry":{"type":"Point","coordinates":[3.808994,51.688587]}},{"type":"Feature","properties":{"kaartdeel":"Schouwen-Duiveland","Code SG":"SD05","LF no":"SD-03 LF","KLM strips":"23 - 570","bonneblad":598,"NAAM":"Zierikzee SD05","plaats":"Zierikzee","polder":"Schouwen","dijk":"West Havendijk"},"geometry":{"type":"Point","coordinates":[3.898237,51.636226]}},{"type":"Feature","properties":{"kaartdeel":"Schouwen-Duiveland","Code SG":"SD06","LF no":"SD-03 LF","KLM strips":"23 - 570","bonneblad":598,"NAAM":"Zierikzee SD06","plaats":"Zierikzee","polder":"Schouwen","dijk":"West Havendijk"},"geometry":{"type":"Point","coordinates":[3.89358,51.633549]}},{"type":"Feature","properties":{"kaartdeel":"Schouwen-Duiveland","Code SG":"SD07","LF no":"SD-03 LF","KLM strips":"23 - 570","bonneblad":598,"NAAM":"Zierikzee SD07","plaats":"Zierikzee","polder":"Schouwen","dijk":"Oost Havenijk"},"geometry":{"type":"Point","coordinates":[3.89858,51.634814]}},{"type":"Feature","properties":{"kaartdeel":"Schouwen-Duiveland","Code SG":"SD08","LF no":"SD-03 LF","KLM strips":"23 - 570","bonneblad":598,"NAAM":"Zierikzee SD08","plaats":"Zierikzee","polder":"Schouwen","dijk":"Oost Havenijk"},"geometry":{"type":"Point","coordinates":[3.896713,51.633762]}},{"type":"Feature","properties":{"kaartdeel":"Schouwen-Duiveland","Code SG":"SD09","LF no":"SD-04 LF","KLM strips":"22 - 558","bonneblad":598,"NAAM":"Zuidernieuwland SD09","plaats":"Zierikzee","polder":"Zuidernieuwlandpolder","dijk":"zeedijk"},"geometry":{"type":"Point","coordinates":[3.931968,51.632603]}},{"type":"Feature","properties":{"kaartdeel":"Schouwen-Duiveland","Code SG":"SD10","LF no":"SD-05 LF","KLM strips":"22 - 560","bonneblad":598,"NAAM":"Gouweveer SD10","plaats":"Zierikzee","polder":"Gouweveerpolder","dijk":"Gouweveerse zeedijk"},"geometry":{"type":"Point","coordinates":[3.94289,51.630858]}},{"type":"Feature","properties":{"kaartdeel":"Schouwen-Duiveland","Code SG":"SD11","LF no":"SD-05 LF","KLM strips":"22 - 560","bonneblad":598,"NAAM":"Gouweveer SD11","plaats":"Zierikzee","polder":"Gouweveerpolder","dijk":"Gouweveerse zeedijk"},"geometry":{"type":"Point","coordinates":[3.946109,51.626516]}},{"type":"Feature","properties":{"kaartdeel":"Schouwen-Duiveland","Code SG":"SD12","LF no":"SD-06 LF","KLM strips":"22 - 564","bonneblad":598,"NAAM":"Zuidbout SD12","plaats":"Zuidbout","polder":"Vierbannen v Duiveland","dijk":"Zuiddijk"},"geometry":{"type":"Point","coordinates":[3.964348,51.616231]}},{"type":"Feature","properties":{"kaartdeel":"Schouwen-Duiveland","Code SG":"SD13","LF no":"SD-07 LF","KLM strips":"24 - 576","bonneblad":598,"NAAM":"Ouwerkerk SD13","plaats":"Ouwerkerk","polder":"Vierbannen v Duiveland","dijk":"Zuiddijk"},"geometry":{"type":"Point","coordinates":[3.968639,51.616871]}},{"type":"Feature","properties":{"kaartdeel":"Schouwen-Duiveland","Code SG":"SD14","LF no":"SD-07 LF","KLM strips":"24 - 576","bonneblad":598,"NAAM":"Ouwerkerk SD14","plaats":"Ouwerkerk","polder":"Vierbannen v Duiveland","dijk":"Zuiddijk"},"geometry":{"type":"Point","coordinates":[3.982072,51.617777]}},{"type":"Feature","properties":{"kaartdeel":"Schouwen-Duiveland","Code SG":"SD15","LF no":"SD-08 LF","KLM strips":"24 - 580","bonneblad":598,"NAAM":"Viane SD15","plaats":"Viane","polder":"Grote Beijeren polder","dijk":"coupure zuidl zeedijk"},"geometry":{"type":"Point","coordinates":[4.009709,51.618283]}},{"type":"Feature","properties":{"kaartdeel":"Schouwen-Duiveland","Code SG":"SD16","LF no":"SD-09 LF","KLM strips":"24 - 584","bonneblad":599,"NAAM":"Oosterland SD16","plaats":"Oosterland","polder":"polder Oosterland","dijk":"zuidelijke zeedijk"},"geometry":{"type":"Point","coordinates":[4.046338,51.630459]}},{"type":"Feature","properties":{"kaartdeel":"Schouwen-Duiveland","Code SG":"SD17","LF no":"SD-10 LF","KLM strips":"18 - 475","bonneblad":579,"NAAM":"De Staart SD17","plaats":"De Staart","polder":"Sirjanslandse polder","dijk":"zeedijk"},"geometry":{"type":"Point","coordinates":[4.026704,51.677345]}},{"type":"Feature","properties":{"kaartdeel":"Schouwen-Duiveland","Code SG":"SD18","LF no":"SD-11 LF","KLM strips":"57 - 768","bonneblad":578,"NAAM":"Stevenssluis SD18","plaats":"Stevenssluis","polder":"Vierbannen v Duiveland","dijk":"zeedijk"},"geometry":{"type":"Point","coordinates":[4.010476,51.676035]}},{"type":"Feature","properties":{"kaartdeel":"Schouwen-Duiveland","Code SG":"SD19","LF no":"SD-12 LF","KLM strips":"57 - 769","bonneblad":578,"NAAM":"Nieuweveer SD19","plaats":"Nieuwerkerk","polder":"Nieuwe Veerpolder","dijk":"zeedijk"},"geometry":{"type":"Point","coordinates":[3.989925,51.675775]}},{"type":"Feature","properties":{"kaartdeel":"Schouwen-Duiveland","Code SG":"SD20","LF no":"SD-12 LF","KLM strips":"57 - 769","bonneblad":578,"NAAM":"Nieuweveer SD20","plaats":"Nieuwerkerk","polder":"Nieuwe Veerpolder","dijk":"zeedijk"},"geometry":{"type":"Point","coordinates":[3.989604,51.675809]}},{"type":"Feature","properties":{"kaartdeel":"Schouwen-Duiveland","Code SG":"SD21","LF no":"SD-13 LF","KLM strips":"58 - 784","bonneblad":578,"NAAM":"Dreischor SD21","plaats":"Dreischor","polder":"polder Dreischor","dijk":"haven zeedijk"},"geometry":{"type":"Point","coordinates":[3.988853,51.682481]}},{"type":"Feature","properties":{"kaartdeel":"Schouwen-Duiveland","Code SG":"SD22","LF no":"SD-11 LF","KLM strips":"57 - 768","bonneblad":578,"NAAM":"Belder SD22","plaats":"Dreischor","polder":"Jonge pold v Dreischor","dijk":"zeedijk"},"geometry":{"type":"Point","coordinates":[4.001343,51.679341]}},{"type":"Feature","properties":{"kaartdeel":"Schouwen-Duiveland","Code SG":"SD23","LF no":"SD-11 LF","KLM strips":"57 - 768","bonneblad":578,"NAAM":"Belder SD23","plaats":"Dreischor","polder":"Jonge pold v Dreischor","dijk":"zeedijk"},"geometry":{"type":"Point","coordinates":[4.007027,51.682508]}},{"type":"Feature","properties":{"kaartdeel":"Schouwen-Duiveland","Code SG":"SD24","LF no":"SD-11 LF","KLM strips":"57 - 768","bonneblad":578,"NAAM":"Belder SD24","plaats":"Dreischor","polder":"Jonge pold v Dreischor","dijk":"zeedijk"},"geometry":{"type":"Point","coordinates":[4.007392,51.683213]}},{"type":"Feature","properties":{"kaartdeel":"Schouwen-Duiveland","Code SG":"SD25","LF no":"SD-11 LF","KLM strips":"57 - 768","bonneblad":578,"NAAM":"Belder SD25","plaats":"Dreischor","polder":"Jonge pold v Dreischor","dijk":"zeedijk"},"geometry":{"type":"Point","coordinates":[4.007478,51.683506]}},{"type":"Feature","properties":{"kaartdeel":"Schouwen-Duiveland","Code SG":"SD26","LF no":"SD-14 LF","KLM strips":"19 - 501","bonneblad":559,"NAAM":"Brouwershaven SD26","plaats":"Brouwershaven","polder":"Groot St Jacobspolder","dijk":"oostelijke havendijk"},"geometry":{"type":"Point","coordinates":[3.91551,51.72841]}},{"type":"Feature","properties":{"kaartdeel":"Schouwen-Duiveland","Code SG":"SD27","LF no":"SD-14 LF","KLM strips":"19 - 501","bonneblad":559,"NAAM":"Brouwershaven SD27","plaats":"Brouwershaven","polder":"Noordernieuwland pold","dijk":"zeedijk"},"geometry":{"type":"Point","coordinates":[3.907442,51.732344]}},{"type":"Feature","properties":{"kaartdeel":"Sint-Philipsland","Code SG":"SP01","LF no":"SP-01 LF","KLM strips":"17-616","bonneblad":599,"NAAM":"Willempolder SP01","plaats":"Sluis","polder":"Willempolder","dijk":"zeedijk"},"geometry":{"type":"Point","coordinates":[4.099188,51.63821]}},{"type":"Feature","properties":{"kaartdeel":"Sint-Philipsland","Code SG":"SP02","LF no":"SP-01 LF","KLM strips":"17-616","bonneblad":599,"NAAM":"Willempolder SP02","plaats":"Sluis","polder":"Willempolder","dijk":"zeedijk"},"geometry":{"type":"Point","coordinates":[4.099874,51.636052]}},{"type":"Feature","properties":{"kaartdeel":"Sint-Philipsland","Code SG":"SP03","LF no":"SP-02 LF","KLM strips":"25-600","bonneblad":599,"NAAM":"Westdijk SP03","plaats":"St.Philipsland","polder":"Oude v St Philipsland","dijk":"Westdijk"},"geometry":{"type":"Point","coordinates":[4.123178,51.617843]}},{"type":"Feature","properties":{"kaartdeel":"Sint-Philipsland","Code SG":"SP04","LF no":"SP-03 LF","KLM strips":"25-602","bonneblad":599,"NAAM":"Zuiddijk SP04","plaats":"St.Philipsland","polder":"Oude v St Philipsland","dijk":"Zuiddijk"},"geometry":{"type":"Point","coordinates":[4.14073,51.613593]}},{"type":"Feature","properties":{"kaartdeel":"Tholen","Code SG":"TH01","LF no":"TH-01 LF","KLM strips":"26-621","bonneblad":"599 619","NAAM":"Grote Nol TH01","plaats":"St Annaland","polder":"Anna Vosdijkpolder","dijk":"zeedijk"},"geometry":{"type":"Point","coordinates":[4.06359,51.611021]}},{"type":"Feature","properties":{"kaartdeel":"Tholen","Code SG":"TH02","LF no":"TH-02 LF","KLM strips":"26-626","bonneblad":"618 619","NAAM":"Stavenisse TH02","plaats":"Stavenisse","polder":"Margarethapolder","dijk":"oostelijke havendijk"},"geometry":{"type":"Point","coordinates":[4.012091,51.590619]}},{"type":"Feature","properties":{"kaartdeel":"Tholen","Code SG":"TH03","LF no":"TH-03 LF","KLM strips":"26-629","bonneblad":618,"NAAM":"Scheldsedijk TH03","plaats":"Stavenisse","polder":"Stavenissepolder","dijk":"Scheldsedijk"},"geometry":{"type":"Point","coordinates":[3.987651,51.590056]}},{"type":"Feature","properties":{"kaartdeel":"Tholen","Code SG":"TH04","LF no":"TH-03 LF","KLM strips":"26-629","bonneblad":618,"NAAM":"Scheldsedijk TH04","plaats":"Stavenisse","polder":"Stavenissepolder","dijk":"Scheldsedijk"},"geometry":{"type":"Point","coordinates":[3.986986,51.589323]}},{"type":"Feature","properties":{"kaartdeel":"Tholen","Code SG":"TH05","LF no":"TH-04 LF","KLM strips":"38-945","bonneblad":618,"NAAM":"Nieuwe Annex TH05","plaats":"Stavenisse","polder":"Stavenisse Nieuwe Annex","dijk":"zuidelijke zeedijk"},"geometry":{"type":"Point","coordinates":[4.012692,51.570908]}},{"type":"Feature","properties":{"kaartdeel":"Tholen","Code SG":"TH06","LF no":"TH-04 LF","KLM strips":"38-945","bonneblad":618,"NAAM":"Nieuwe Annex TH06","plaats":"Stavenisse","polder":"Stavenisse Nieuwe Annex","dijk":"zuidelijke zeedijk"},"geometry":{"type":"Point","coordinates":[4.015696,51.569748]}},{"type":"Feature","properties":{"kaartdeel":"Tholen","Code SG":"TH07","LF no":"TH-04 LF","KLM strips":"38-945","bonneblad":618,"NAAM":"Nieuwe Annex TH07","plaats":"Stavenisse","polder":"Stavenisse Nieuwe Annex","dijk":"zuidelijke zeedijk"},"geometry":{"type":"Point","coordinates":[4.022713,51.567707]}},{"type":"Feature","properties":{"kaartdeel":"Tholen","Code SG":"TH08","LF no":"TH-05 LF","KLM strips":"39-966","bonneblad":639,"NAAM":"Klaas v Steenland TH08","plaats":"Poortvliet","polder":"Klaas v Steenland polder","dijk":"zeedijk"},"geometry":{"type":"Point","coordinates":[4.140494,51.522496]}},{"type":"Feature","properties":{"kaartdeel":"Tholen","Code SG":"TH09","LF no":"TH-05 LF","KLM strips":"39-966","bonneblad":639,"NAAM":"Klaas v Steenland TH09","plaats":"Poortvliet","polder":"Klaas v Steenland polder","dijk":"zeedijk"},"geometry":{"type":"Point","coordinates":[4.141341,51.522002]}},{"type":"Feature","properties":{"kaartdeel":"Noord-Beveland","Code SG":"NB01","LF no":"NB-01 LF","KLM strips":"51-742","bonneblad":"617 637","NAAM":"Anna polder NB01","plaats":"Kortgene","polder":"Jonkvrouw Annapolder","dijk":"zuidwestl zeedijk"},"geometry":{"type":"Point","coordinates":[3.844872,51.550785]}},{"type":"Feature","properties":{"kaartdeel":"Noord-Beveland","Code SG":"NB02","LF no":"NB-02 LF","KLM strips":"53-755","bonneblad":628,"NAAM":"Leendert Abraham NB02","plaats":"Kats","polder":"Leendert Abraham polder","dijk":"oostelijke zeedijk"},"geometry":{"type":"Point","coordinates":[3.89619,51.56409]}},{"type":"Feature","properties":{"kaartdeel":"Walcheren","Code SG":"WA01","LF no":"WA-01 LF","KLM strips":"54-925","bonneblad":636,"NAAM":"Suzanna polder WA01","plaats":"Arnemuiden","polder":"Suzannapolder","dijk":"zeedijk"},"geometry":{"type":"Point","coordinates":[3.703315,51.507434]}},{"type":"Feature","properties":{"kaartdeel":"Zuid-Beveland","Code SG":"ZB01","LF no":"ZB-01 LF","KLM strips":"46-861","bonneblad":679,"NAAM":"Ellewoutsdijk ZB01","plaats":"Ellewoutsdijk","polder":"Everdingepolder","dijk":"zeedijk"},"geometry":{"type":"Point","coordinates":[3.852146,51.392391]}},{"type":"Feature","properties":{"kaartdeel":"Zuid-Beveland","Code SG":"ZB02","LF no":"ZB-01 LF","KLM strips":"46-861","bonneblad":679,"NAAM":"Ellewoutsdijk ZB02","plaats":"Ellewoutsdijk","polder":"Everdingepolder","dijk":"zeedijk"},"geometry":{"type":"Point","coordinates":[3.857682,51.3914]}},{"type":"Feature","properties":{"kaartdeel":"Zuid-Beveland","Code SG":"ZB03","LF no":"ZB-02 LF","KLM strips":"45-668","bonneblad":680,"NAAM":"Westgat Kruiningen ZB03","plaats":"Kruiningen","polder":"polder Kruiningen","dijk":"zeedijk"},"geometry":{"type":"Point","coordinates":[4.021811,51.438788]}},{"type":"Feature","properties":{"kaartdeel":"Zuid-Beveland","Code SG":"ZB04","LF no":"ZB-03 LF","KLM strips":"VII-55","bonneblad":681,"NAAM":"Veerhaven Kruiningen ZB04","plaats":"Kruiningen","polder":"polder Kruiningen","dijk":"Veerhaven"},"geometry":{"type":"Point","coordinates":[4.03151,51.43638]}},{"type":"Feature","properties":{"kaartdeel":"Zuid-Beveland","Code SG":"ZB05","LF no":"ZB-03 LF","KLM strips":"VII-55","bonneblad":681,"NAAM":"Oostgat Kruiningen ZB05","plaats":"Kruiningen","polder":"Oost Inkelse polder","dijk":"zeedijk"},"geometry":{"type":"Point","coordinates":[4.042883,51.431752]}},{"type":"Feature","properties":{"kaartdeel":"Zuid-Beveland","Code SG":"ZB06","LF no":"ZB-04 LF","KLM strips":"44A-660","bonneblad":681,"NAAM":"Waarde ZB06","plaats":"Waarde","polder":"Westveerpolder","dijk":"zeedijk"},"geometry":{"type":"Point","coordinates":[4.060886,51.415214]}},{"type":"Feature","properties":{"kaartdeel":"Zuid-Beveland","Code SG":"ZB07","LF no":"ZB-05 LF ","KLM strips":"44-638","bonneblad":682,"NAAM":"Zimmermanpolder ZB07","plaats":"Rilland","polder":"Zimmerman polder","dijk":"zeedijk"},"geometry":{"type":"Point","coordinates":[4.165106,51.399125]}},{"type":"Feature","properties":{"kaartdeel":"Zuid-Beveland","Code SG":"ZB08","LF no":"ZB-06 LF","KLM strips":"44-636","bonneblad":682,"NAAM":"Rilland ZB08","plaats":"Rilland","polder":"Reigerbergse polder","dijk":"zeedijk"},"geometry":{"type":"Point","coordinates":[4.177,51.4033]}},{"type":"Feature","properties":{"kaartdeel":"Zuid-Beveland","Code SG":"ZB09","LF no":"ZB-07 LF","KLM strips":"44-633","bonneblad":682,"NAAM":"Bath ZB09","plaats":"Bath","polder":"Reigerbergse polder","dijk":"zeedijk"},"geometry":{"type":"Point","coordinates":[4.205661,51.402767]}},{"type":"Feature","properties":{"kaartdeel":"Zuid-Beveland","Code SG":"ZB10","LF no":"ZB-08 LF","KLM strips":"49-710","bonneblad":637,"NAAM":"Zuidvlietpoder ZB10","plaats":"Wolphaartsdijk","polder":"Zuidvlietpolder","dijk":"westelijke zeedijk"},"geometry":{"type":"Point","coordinates":[3.82188,51.547222]}},{"type":"Feature","properties":{"kaartdeel":"Zeeuws- Vlaanderen","Code SG":"ZV01","LF no":"ZV-01 LF","KLM strips":"panor","bonneblad":699,"NAAM":"Hoofdplaat ZV01","plaats":"Hoofdplaat","polder":"Hoofdplaatpolder","dijk":"Vossenkaai"},"geometry":{"type":"Point","coordinates":[3.654306,51.373267]}},{"type":"Feature","properties":{"kaartdeel":"Zeeuws- Vlaanderen","Code SG":"ZV02","LF no":"ZV-02 LF","KLM strips":"panor","bonneblad":700,"NAAM":"NieuwNeuzenpolder ZV02","plaats":"Terneuzen","polder":"Nieuw Neuzenpolder","dijk":"noordelijke zeedijk"},"geometry":{"type":"Point","coordinates":[3.795562,51.345344]}},{"type":"Feature","properties":{"kaartdeel":"Zeeuws- Vlaanderen","Code SG":"ZV03","LF no":"ZV-02 LF","KLM strips":"panor","bonneblad":700,"NAAM":"NieuwNeuzenpolder ZV03","plaats":"Terneuzen","polder":"Nieuw Neuzenpolder","dijk":"noordelijke zeedijk"},"geometry":{"type":"Point","coordinates":[3.796721,51.345062]}},{"type":"Feature","properties":{"kaartdeel":"Zeeuws- Vlaanderen","Code SG":"ZV04","LF no":"ZV-03 LF","KLM strips":"panor","bonneblad":"701, 680","NAAM":"Ser Arendspolder ZV04","plaats":"Ossenisse","polder":"Ser Arendspolder","dijk":"zeedijk"},"geometry":{"type":"Point","coordinates":[3.959949,51.368458]}},{"type":"Feature","properties":{"kaartdeel":"Zeeuws- Vlaanderen","Code SG":"ZV05","LF no":"ZV-03 LF","KLM strips":"panor","bonneblad":"701, 680","NAAM":"Ser Arendspolder ZV05","plaats":"Ossenisse","polder":"Ser Arendspolder","dijk":"zeedijk"},"geometry":{"type":"Point","coordinates":[3.960078,51.368927]}},{"type":"Feature","properties":{"kaartdeel":"Noord-Brabant west","Code SG":"NBW01","LF no":"NBW-01 LF","KLM strips":"panor","bonneblad":703,"NAAM":"Vijdtpolder NBW01","plaats":"Woensdrecht","polder":"Vijdtpolder","dijk":"Scheldedijk"},"geometry":{"type":"Point","coordinates":[4.274948,51.381384]}},{"type":"Feature","properties":{"kaartdeel":"Noord-Brabant west","Code SG":"NBW02","LF no":"NBW-02 LF","KLM strips":"42-979","bonneblad":640,"NAAM":"Theodoruspolder NBW02","plaats":"Halsteren","polder":"Theodoruspolder","dijk":"Tholensedijk"},"geometry":{"type":"Point","coordinates":[4.254198,51.504602]}},{"type":"Feature","properties":{"kaartdeel":"Noord-Brabant west","Code SG":"NBW03","LF no":"NBW-02 LF","KLM strips":"42-979","bonneblad":640,"NAAM":"Theodoruspolder NBW03","plaats":"Halsteren","polder":"Theodoruspolder","dijk":"Tholensedijk"},"geometry":{"type":"Point","coordinates":[4.262481,51.502011]}},{"type":"Feature","properties":{"kaartdeel":"Noord-Brabant west","Code SG":"NBW04","LF no":"NBW-02 LF","KLM strips":"42-979","bonneblad":640,"NAAM":"Theodoruspolder NBW04","plaats":"Halsteren","polder":"Theodoruspolder","dijk":"Tholensedijk"},"geometry":{"type":"Point","coordinates":[4.264841,51.501236]}},{"type":"Feature","properties":{"kaartdeel":"Noord-Brabant west","Code SG":"NBW05","LF no":"NBW-03 LF","KLM strips":"37-1009","bonneblad":620,"NAAM":"Eendrachtspolder NBW05","plaats":"Nw-Vossemeer","polder":"Eendrachtspolder","dijk":"zeedijk"},"geometry":{"type":"Point","coordinates":[4.211369,51.57983]}},{"type":"Feature","properties":{"kaartdeel":"Noord-Brabant west","Code SG":"NBW06","LF no":"NBW-04 LF","KLM strips":"37-1010","bonneblad":620,"NAAM":"Herenpolder NBW06","plaats":"Nw-Vossemeer","polder":"Herenpolder","dijk":"zeedijk"},"geometry":{"type":"Point","coordinates":[4.204116,51.588856]}},{"type":"Feature","properties":{"kaartdeel":"Noord-Brabant noord","Code SG":"NBN01","LF no":"NBN-01 LF","KLM strips":"fragm","bonneblad":581,"NAAM":"Fort Sabina NBN01","plaats":"Willemstad","polder":"Sabina Henricapolder","dijk":"zeedijk"},"geometry":{"type":"Point","coordinates":[4.392622,51.675562]}},{"type":"Feature","properties":{"kaartdeel":"Noord-Brabant noord","Code SG":"NBN02","LF no":"NBN-02 LF","KLM strips":"panor","bonneblad":582,"NAAM":"Willemstad NBN02","plaats":"Willemstad","polder":"Ruigen Hilse polder","dijk":"Oostdijk"},"geometry":{"type":"Point","coordinates":[4.458773,51.687177]}},{"type":"Feature","properties":{"kaartdeel":"Noord-Brabant noord","Code SG":"NBN03","LF no":"NBN-03 LF","KLM strips":"panor","bonneblad":583,"NAAM":"Moerdijk NBN03","plaats":"Moerdijk","polder":"ws de Royale Polder","dijk":"Bandijk?"},"geometry":{"type":"Point","coordinates":[4.622916,51.702014]}},{"type":"Feature","properties":{"kaartdeel":"Noord-Brabant noord","Code SG":"NBN04","LF no":"NBN-03 LF","KLM strips":"panor","bonneblad":583,"NAAM":"Klaverpolder NBN04","plaats":"Moerdijk","polder":"Klaverpolder","dijk":"Klaverpoldersedijk"},"geometry":{"type":"Point","coordinates":[4.627084,51.708723]}},{"type":"Feature","properties":{"kaartdeel":"Noord-Brabant noord","Code SG":"NBN05","LF no":"NBN-04 LF","KLM strips":"panor","bonneblad":583,"NAAM":"Schuddebeurspolder NBN05","plaats":"Lage Zwaluwe","polder":"Schuddebeurspolder","dijk":"Buitendijk"},"geometry":{"type":"Point","coordinates":[4.673867,51.714623]}},{"type":"Feature","properties":{"kaartdeel":"Noord-Brabant noord","Code SG":"NBN06","LF no":"NBN-05 LF","KLM strips":"panor","bonneblad":583,"NAAM":"Lage Zwaluwe NBN06","plaats":"Lage Zwaluwe","polder":"ws de Nieuwe Zwaluwepolder","dijk":"Bandijk"},"geometry":{"type":"Point","coordinates":[4.714637,51.717537]}},{"type":"Feature","properties":{"kaartdeel":"Noord-Brabant Land v Heusden en Altena","Code SG":"LHA01","LF no":"LHA-01 LF","KLM strips":"panor","bonneblad":566,"NAAM":"Nieuwland van Altena LHA01","plaats":"Nieuwendijk","polder":"ws H Nieuwland v Altena","dijk":"Kildijk"},"geometry":{"type":"Point","coordinates":[4.909624,51.784359]}},{"type":"Feature","properties":{"kaartdeel":"Noord-Brabant Land v Heusden en Altena","Code SG":"LHA02","LF no":"LHA-01 LF","KLM strips":"panor","bonneblad":566,"NAAM":"Zuidhollandsepolder LHA02","plaats":"Hank","polder":"ws Zuid-Hollandse Polder","dijk":"Buitendijk"},"geometry":{"type":"Point","coordinates":[4.91783,51.763454]}},{"type":"Feature","properties":{"kaartdeel":"Goeree Overflakkee","Code SG":"GO01","LF no":"GO-01 LF","KLM strips":"32 - 19","bonneblad":541,"NAAM":"Ouddorp de Val GO01","plaats":"Ouddorp","polder":"polder Preekhil ","dijk":"dijk"},"geometry":{"type":"Point","coordinates":[3.911895,51.793846]}},{"type":"Feature","properties":{"kaartdeel":"Goeree Overflakkee","Code SG":"GO02","LF no":"GO-01 LF","KLM strips":"32 - 19","bonneblad":541,"NAAM":"Ouddorp de Val GO02","plaats":"Ouddorp","polder":"polder Preekhil ","dijk":"dijk"},"geometry":{"type":"Point","coordinates":[3.910275,51.795936]}},{"type":"Feature","properties":{"kaartdeel":"Goeree Overflakkee","Code SG":"GO03","LF no":"GO-02 LF","KLM strips":"32 - 22","bonneblad":541,"NAAM":"Ouddorp haven GO03","plaats":"Ouddorp","polder":"polder Het Oudeland","dijk":"Oudelandse zeedijk"},"geometry":{"type":"Point","coordinates":[3.933181,51.798405]}},{"type":"Feature","properties":{"kaartdeel":"Goeree Overflakkee","Code SG":"GO04","LF no":"GO-03 LF","KLM strips":"32 - 25","bonneblad":541,"NAAM":"Jillesweg GO04","plaats":"Ouddorp","polder":"polder Het Oudeland","dijk":"Oudelandse zeedijk"},"geometry":{"type":"Point","coordinates":[3.962453,51.803834]}},{"type":"Feature","properties":{"kaartdeel":"Goeree Overflakkee","Code SG":"GO05","LF no":"GO-04 LF","KLM strips":"32 - 29","bonneblad":541,"NAAM":"Nieuw Stellendam GO05","plaats":"Goedereede","polder":"Kleine Zuidpolder","dijk":"Kl Zuidpoderse zeedijk"},"geometry":{"type":"Point","coordinates":[3.990612,51.804276]}},{"type":"Feature","properties":{"kaartdeel":"Goeree Overflakkee","Code SG":"GO06","LF no":"GO-04 LF","KLM strips":"32 - 29","bonneblad":541,"NAAM":"Nieuw Stellendam GO06","plaats":"Goedereede","polder":"Schaddeleepolder","dijk":"zeedijk"},"geometry":{"type":"Point","coordinates":[3.992372,51.805125]}},{"type":"Feature","properties":{"kaartdeel":"Goeree Overflakkee","Code SG":"GO07","LF no":"GO-04 LF","KLM strips":"32 - 29","bonneblad":541,"NAAM":"Nieuw Stellendam GO07","plaats":"Stellendam","polder":"polder Nieuw Stellendam","dijk":"zeedijk"},"geometry":{"type":"Point","coordinates":[3.997414,51.80478]}},{"type":"Feature","properties":{"kaartdeel":"Goeree Overflakkee","Code SG":"GO08","LF no":"GO-04 LF","KLM strips":"32 - 29","bonneblad":541,"NAAM":"Nieuw Stellendam GO08","plaats":"Stellendam","polder":"polder Nieuw Stellendam","dijk":"zeedijk"},"geometry":{"type":"Point","coordinates":[3.999195,51.804024]}},{"type":"Feature","properties":{"kaartdeel":"Goeree Overflakkee","Code SG":"GO09","LF no":"GO-04 LF","KLM strips":"32 - 29","bonneblad":541,"NAAM":"Nieuw Stellendam GO09","plaats":"Stellendam","polder":"polder Nieuw Stellendam","dijk":"zeedijk"},"geometry":{"type":"Point","coordinates":[4.001427,51.802949]}},{"type":"Feature","properties":{"kaartdeel":"Goeree Overflakkee","Code SG":"GO10","LF no":"GO-04 LF","KLM strips":"32 - 29","bonneblad":541,"NAAM":"Nieuw Stellendam GO10","plaats":"Stellendam","polder":"polder Nieuw Stellendam","dijk":"zeedijk"},"geometry":{"type":"Point","coordinates":[4.002435,51.802485]}},{"type":"Feature","properties":{"kaartdeel":"Goeree Overflakkee","Code SG":"GO11","LF no":"GO-04 LF","KLM strips":"32 - 29","bonneblad":541,"NAAM":"Nieuw Stellendam GO11","plaats":"Stellendam","polder":"polder Nieuw Stellendam","dijk":"zeedijk"},"geometry":{"type":"Point","coordinates":[4.0051,51.801344]}},{"type":"Feature","properties":{"kaartdeel":"Goeree Overflakkee","Code SG":"GO12","LF no":"GO-04 LF","KLM strips":"32 - 29","bonneblad":541,"NAAM":"Nieuw Stellendam GO12","plaats":"Stellendam","polder":"polder Nieuw Stellendam","dijk":"zeedijk"},"geometry":{"type":"Point","coordinates":[4.006341,51.800694]}},{"type":"Feature","properties":{"kaartdeel":"Goeree Overflakkee","Code SG":"GO13","LF no":"GO-04 LF","KLM strips":"32 - 29","bonneblad":541,"NAAM":"Nieuw Stellendam GO13","plaats":"Stellendam","polder":"polder Nieuw Stellendam","dijk":"zeedijk"},"geometry":{"type":"Point","coordinates":[4.007585,51.800096]}},{"type":"Feature","properties":{"kaartdeel":"Goeree Overflakkee","Code SG":"GO14","LF no":"GO-05 LF","KLM strips":"29 - 323","bonneblad":579,"NAAM":"Herkingen GO14","plaats":"Herkingen","polder":"polder Klinkerland","dijk":"Klinkerlandse eedijk"},"geometry":{"type":"Point","coordinates":[4.102128,51.708357]}},{"type":"Feature","properties":{"kaartdeel":"Goeree Overflakkee","Code SG":"GO15","LF no":"GO-06 LF","KLM strips":"35 - 257","bonneblad":580,"NAAM":"Den Bommel GO15","plaats":"Den Bommel","polder":"polder Den Bommel","dijk":"dijk bij de sluis"},"geometry":{"type":"Point","coordinates":[4.280559,51.717119]}},{"type":"Feature","properties":{"kaartdeel":"Voorne-Putten","Code SG":"VP01","LF no":"VP-01 LF","KLM strips":"panor","bonneblad":543,"NAAM":"Oudenhoorn VP01","plaats":"Oudenhoorn","polder":"polder Oudenhoorn","dijk":"zeedijk"},"geometry":{"type":"Point","coordinates":[4.167108,51.817287]}},{"type":"Feature","properties":{"kaartdeel":"Eiland van Rozenburg","Code SG":"RB01","LF no":"RB-01 LF","KLM strips":"panor","bonneblad":500,"NAAM":"Ruige Plaat RB01","plaats":"Rozenburg","polder":"polder de Ruige Plaat","dijk":"Bosse Dijk"},"geometry":{"type":"Point","coordinates":[4.286642,51.895933]}},{"type":"Feature","properties":{"kaartdeel":"Eiland Tiengemeten","Code SG":"TG01","LF no":"TG-01 LF","KLM strips":"panor","bonneblad":562,"NAAM":"Mariapolder TG01","plaats":"Tiengemeten","polder":"Mariapolder","dijk":"zuidelijke zeedijk"},"geometry":{"type":"Point","coordinates":[4.31692,51.72744]}},{"type":"Feature","properties":{"kaartdeel":"Eiland v IJsselmonde","Code SG":"IJM01","LF no":"IJM-01 LF","KLM strips":"? GEEN","bonneblad":523,"NAAM":"Zegenpolder IJM01","plaats":"Rhoon","polder":"Zegenpolder","dijk":"Zegenpolderse dijk"},"geometry":{"type":"Point","coordinates":[4.42963,51.84475]}},{"type":"Feature","properties":{"kaartdeel":"Eiland v IJsselmonde","Code SG":"IJM02","LF no":"IJM-01 LF","KLM strips":"?","bonneblad":523,"NAAM":"Zegenpolder IJM02","plaats":"Rhoon","polder":"Zegenpolder","dijk":"Zegenpolderse dijk"},"geometry":{"type":"Point","coordinates":[4.43297,51.84409]}},{"type":"Feature","properties":{"kaartdeel":"Eiland v IJsselmonde","Code SG":"IJM03","LF no":"IJM-01 LF","KLM strips":"?","bonneblad":523,"NAAM":"Zegenpolder IJM03","plaats":"Rhoon","polder":"Zegenpolder","dijk":"Zegenpolderse dijk"},"geometry":{"type":"Point","coordinates":[4.43619,51.84345]}},{"type":"Feature","properties":{"kaartdeel":"Eiland Beren Plaat","Code SG":"BP01","LF no":"IJM-01 LF","KLM strips":"?","bonneblad":544,"NAAM":"Nieuwe polder BP01","plaats":"Beren Plaat","polder":"Nieuwe polder","dijk":"dijk"},"geometry":{"type":"Point","coordinates":[4.422855,51.838615]}},{"type":"Feature","properties":{"kaartdeel":"Alblasserwaard","Code SG":"AW01","LF no":"AW-01 LF","KLM strips":"panor","bonneblad":546,"NAAM":"Papendrecht AW01","plaats":"Papendrecht","polder":"polder Papendrecht","dijk":"bandijk Westeind"},"geometry":{"type":"Point","coordinates":[4.673,51.833255]}},{"type":"Feature","properties":{"kaartdeel":"Texel","Code SG":"TX01","LF no":"TX-01 LF","KLM strips":"panor","bonneblad":"","NAAM":"Eendragtspolder TX01","plaats":"De Cocksdorp","polder":"polder de Eendragt","dijk":"Lancasterdijk"},"geometry":{"type":"Point","coordinates":[4.900117,53.126792]}}]}